[
    {
        "ciclofaixa": 0,
        "corredor": 0,
        "endereco": "Rua Areia Branca. 681",
        "endereco_alterado": "x",
        "equipamento": "FS551JOI",
        "estacionamento": 0,
        "latitude": -26.26574,
        "longitude": -48.80091,
        "n_faixa_carro_sentido": 1,
        "radar_2_sentidos": "x"
    },
    {
        "ciclofaixa": 0,
        "corredor": 0,
        "endereco": "Rua Dona Francisca. 11657",
        "endereco_alterado": 0,
        "equipamento": "FS552JOI",
        "estacionamento": 0,
        "latitude": -26.17617,
        "longitude": -49.00097,
        "n_faixa_carro_sentido": 1,
        "radar_2_sentidos": 0
    },
    {
        "ciclofaixa": 1,
        "corredor": 0,
        "endereco": "Rua Pref. Baltazar Buschle. 630",
        "endereco_alterado": 0,
        "equipamento": "FS555JOI",
        "estacionamento": 0,
        "latitude": -26.2836,
        "longitude": -48.80301,
        "n_faixa_carro_sentido": 1,
        "radar_2_sentidos": "x"
    },
    {
        "ciclofaixa": 1,
        "corredor": 0,
        "endereco": "Rua Camboriú. 300",
        "endereco_alterado": 0,
        "equipamento": "FS556JOI",
        "estacionamento": 0,
        "latitude": -26.91061,
        "longitude": -48.65663,
        "n_faixa_carro_sentido": 1,
        "radar_2_sentidos": "x"
    },
    {
        "ciclofaixa": 0,
        "corredor": 0,
        "endereco": "Rua Boehmerwald. 600",
        "endereco_alterado": "x",
        "equipamento": "FS557JOI",
        "estacionamento": 0,
        "latitude": -26.36049,
        "longitude": -48.83264,
        "n_faixa_carro_sentido": 0,
        "radar_2_sentidos": 0
    },
    {
        "ciclofaixa": 1,
        "corredor": 0,
        "endereco": "Rua Graciosa. 1000",
        "endereco_alterado": 0,
        "equipamento": "FS558JOI",
        "estacionamento": 0,
        "latitude": -26.31945,
        "longitude": -48.83094,
        "n_faixa_carro_sentido": 2,
        "radar_2_sentidos": 0
    },
    {
        "ciclofaixa": 1,
        "corredor": 0,
        "endereco": "Rua Inácio Bastos. 770",
        "endereco_alterado": 0,
        "equipamento": "FS559JOI",
        "estacionamento": 1,
        "latitude": -26.31602,
        "longitude": -48.83758,
        "n_faixa_carro_sentido": 2,
        "radar_2_sentidos": 0
    },
    {
        "ciclofaixa": 1,
        "corredor": 0,
        "endereco": "Rua Papa João XXIII. 500",
        "endereco_alterado": 0,
        "equipamento": "FS560JOI",
        "estacionamento": 0,
        "latitude": -26.27482,
        "longitude": -48.824,
        "n_faixa_carro_sentido": 2,
        "radar_2_sentidos": 0
    },
    {
        "ciclofaixa": 1,
        "corredor": 0,
        "endereco": "Rua Tuiuti. 1500",
        "endereco_alterado": 0,
        "equipamento": "FS561JOI",
        "estacionamento": 0,
        "latitude": -26.25815,
        "longitude": -48.82012,
        "n_faixa_carro_sentido": 1,
        "radar_2_sentidos": "x"
    },
    {
        "ciclofaixa": 1,
        "corredor": 0,
        "endereco": "Rua Dona Francisca. 3651",
        "endereco_alterado": 0,
        "equipamento": "FS562JOI",
        "estacionamento": 0,
        "latitude": -26.27359,
        "longitude": -48.84908,
        "n_faixa_carro_sentido": 2,
        "radar_2_sentidos": 0
    },
    {
        "ciclofaixa": 0,
        "corredor": 1,
        "endereco": "Rua Santa Catarina. 1450",
        "endereco_alterado": 0,
        "equipamento": "FS563JOI",
        "estacionamento": 0,
        "latitude": -26.33583,
        "longitude": -48.84758,
        "n_faixa_carro_sentido": 2,
        "radar_2_sentidos": 0
    },
    {
        "ciclofaixa": 1,
        "corredor": 0,
        "endereco": "Rua Gothard Kaesemodel. 326",
        "endereco_alterado": 0,
        "equipamento": "FS564JOI",
        "estacionamento": 0,
        "latitude": -26.31668,
        "longitude": -48.85893,
        "n_faixa_carro_sentido": 1,
        "radar_2_sentidos": 0
    },
    {
        "ciclofaixa": 0,
        "corredor": 0,
        "endereco": "Rua Waldomiro José Borges. 4104",
        "endereco_alterado": "x",
        "equipamento": "FS565JOI",
        "estacionamento": 0,
        "latitude": -26.38367,
        "longitude": -48.82202,
        "n_faixa_carro_sentido": 1,
        "radar_2_sentidos": "x"
    },
    {
        "ciclofaixa": 0,
        "corredor": 0,
        "endereco": "Rua Xavier Arp. 250",
        "endereco_alterado": 0,
        "equipamento": "FS566JOI",
        "estacionamento": 0,
        "latitude": -26.28226,
        "longitude": -48.81352,
        "n_faixa_carro_sentido": 2,
        "radar_2_sentidos": 0
    },
    {
        "ciclofaixa": 0,
        "corredor": 1,
        "endereco": "Dr. João Colin x Max Colin",
        "endereco_alterado": 0,
        "equipamento": "FS567JOI",
        "estacionamento": 0,
        "latitude": -26.29493,
        "longitude": -48.84791,
        "n_faixa_carro_sentido": 2,
        "radar_2_sentidos": 0
    },
    {
        "ciclofaixa": 0,
        "corredor": 1,
        "endereco": "Rua São Paulo x Rua Inácio Bastos",
        "endereco_alterado": 0,
        "equipamento": "FS568JOI",
        "estacionamento": 0,
        "latitude": -26.31651,
        "longitude": -48.8426,
        "n_faixa_carro_sentido": 2,
        "radar_2_sentidos": 0
    },
    {
        "ciclofaixa": 0,
        "corredor": 1,
        "endereco": "Av.Dr. Albano Schultz x Rua Princesa Izabel",
        "endereco_alterado": 0,
        "equipamento": "FS569JOI",
        "estacionamento": 0,
        "latitude": -26.2998,
        "longitude": -48.8424,
        "n_faixa_carro_sentido": 2,
        "radar_2_sentidos": 0
    },
    {
        "ciclofaixa": 0,
        "corredor": 0,
        "endereco": "Av. Hermann August Lepper x Rua Otto E. Lepper",
        "endereco_alterado": 0,
        "equipamento": "FS570JOI",
        "estacionamento": 0,
        "latitude": -26.30008,
        "longitude": -48.84182,
        "n_faixa_carro_sentido": 3,
        "radar_2_sentidos": 0
    },
    {
        "ciclofaixa": 0,
        "corredor": 1,
        "endereco": "Blumenau x Presidente Prudente de Moraes",
        "endereco_alterado": 0,
        "equipamento": "FS571JOI",
        "estacionamento": 0,
        "latitude": -26.27452,
        "longitude": -48.85105,
        "n_faixa_carro_sentido": 2,
        "radar_2_sentidos": 0
    },
    {
        "ciclofaixa": 0,
        "corredor": 0,
        "endereco": "Rua Florianópolis x Rua Graciosa",
        "endereco_alterado": 0,
        "equipamento": "FS572JOI",
        "estacionamento": 0,
        "latitude": -26.32416,
        "longitude": -48.83737,
        "n_faixa_carro_sentido": 2,
        "radar_2_sentidos": 0
    },
    {
        "ciclofaixa": 0,
        "corredor": 0,
        "endereco": "Rua Gothard Kaesemodel. 533",
        "endereco_alterado": 0,
        "equipamento": "FS573JOI",
        "estacionamento": 0,
        "latitude": -26.31777,
        "longitude": -48.85774,
        "n_faixa_carro_sentido": 1,
        "radar_2_sentidos": 0
    },
    {
        "ciclofaixa": 0,
        "corredor": 0,
        "endereco": "Rua Comandante Paulo Serra 580",
        "endereco_alterado": "x",
        "equipamento": "FS575JOI",
        "estacionamento": 0,
        "latitude": -26.27682,
        "longitude": -48.87508,
        "n_faixa_carro_sentido": 0,
        "radar_2_sentidos": 0
    },
    {
        "ciclofaixa": 0,
        "corredor": 0,
        "endereco": "Rua Marechal Luz. 831",
        "endereco_alterado": "x",
        "equipamento": "FS576JOI",
        "estacionamento": 0,
        "latitude": -26.32551,
        "longitude": -48.80962,
        "n_faixa_carro_sentido": 2,
        "radar_2_sentidos": 0
    },
    {
        "ciclofaixa": 1,
        "corredor": 0,
        "endereco": "Rua Ponte Serrada. 440",
        "endereco_alterado": 0,
        "equipamento": "FS577JOI",
        "estacionamento": 0,
        "latitude": -26.27658,
        "longitude": -48.80753,
        "n_faixa_carro_sentido": 1,
        "radar_2_sentidos": "x"
    },
    {
        "ciclofaixa": 1,
        "corredor": 0,
        "endereco": "Rua Albano Schmidt. 1091",
        "endereco_alterado": 0,
        "equipamento": "FS578JOI",
        "estacionamento": 0,
        "latitude": -26.30468,
        "longitude": -48.82496,
        "n_faixa_carro_sentido": 2,
        "radar_2_sentidos": 0
    },
    {
        "ciclofaixa": 0,
        "corredor": 0,
        "endereco": "Rua Iririu. 1070",
        "endereco_alterado": 0,
        "equipamento": "FS579JOI",
        "estacionamento": 0,
        "latitude": -26.27599,
        "longitude": -48.83419,
        "n_faixa_carro_sentido": 2,
        "radar_2_sentidos": 0
    },
    {
        "ciclofaixa": 0,
        "corredor": 0,
        "endereco": "Av. Jupiter. 890",
        "endereco_alterado": 0,
        "equipamento": "FS580JOI",
        "estacionamento": 1,
        "latitude": -26.21177,
        "longitude": -48.82455,
        "n_faixa_carro_sentido": 1,
        "radar_2_sentidos": 0
    },
    {
        "ciclofaixa": 1,
        "corredor": 0,
        "endereco": "Rua Monsenhor Gercino. 3120",
        "endereco_alterado": 0,
        "equipamento": "FS581JOI",
        "estacionamento": 0,
        "latitude": -26.34003,
        "longitude": -48.82386,
        "n_faixa_carro_sentido": 1,
        "radar_2_sentidos": "x"
    },
    {
        "ciclofaixa": 0,
        "corredor": 0,
        "endereco": "Rua Carlos Benack. 590",
        "endereco_alterado": 0,
        "equipamento": "FS582JOI",
        "estacionamento": 1,
        "latitude": -26.28207,
        "longitude": -48.83521,
        "n_faixa_carro_sentido": 2,
        "radar_2_sentidos": 0
    },
    {
        "ciclofaixa": 0,
        "corredor": 0,
        "endereco": "Rua das Cegonhas x Rua Frontin",
        "endereco_alterado": 0,
        "equipamento": "FS583JOI",
        "estacionamento": 0,
        "latitude": -26.2665,
        "longitude": -48.81281,
        "n_faixa_carro_sentido": 1,
        "radar_2_sentidos": "x"
    },
    {
        "ciclofaixa": 1,
        "corredor": 0,
        "endereco": "Rua Max Colin x Rua Blumenau",
        "endereco_alterado": 0,
        "equipamento": "FS584JOI",
        "estacionamento": 0,
        "latitude": -26.29465,
        "longitude": -48.85005,
        "n_faixa_carro_sentido": 3,
        "radar_2_sentidos": 0
    },
    {
        "ciclofaixa": 0,
        "corredor": 1,
        "endereco": "Rua Monsenhor Gercino cruzamento com Rua Fátima",
        "endereco_alterado": 0,
        "equipamento": "FS585JOI",
        "estacionamento": 0,
        "latitude": -26.34054,
        "longitude": -48.81631,
        "n_faixa_carro_sentido": 1,
        "radar_2_sentidos": "x"
    },
    {
        "ciclofaixa": 0,
        "corredor": 0,
        "endereco": "Av. Getúlio Vargas x Rua Inácio Bastos",
        "endereco_alterado": 0,
        "equipamento": "FS586JOI",
        "estacionamento": 1,
        "latitude": -26.31625,
        "longitude": -48.84526,
        "n_faixa_carro_sentido": 3,
        "radar_2_sentidos": 0
    },
    {
        "ciclofaixa": 1,
        "corredor": 0,
        "endereco": "Rua Guaíra. 500",
        "endereco_alterado": 0,
        "equipamento": "FS587JOI",
        "estacionamento": 0,
        "latitude": -26.268,
        "longitude": -48.82313,
        "n_faixa_carro_sentido": 2,
        "radar_2_sentidos": 0
    },
    {
        "ciclofaixa": 0,
        "corredor": 0,
        "endereco": "Avenida Paulo Schroeder. 1750",
        "endereco_alterado": 0,
        "equipamento": "FS588JOI",
        "estacionamento": 1,
        "latitude": -26.35414,
        "longitude": -48.83134,
        "n_faixa_carro_sentido": 2,
        "radar_2_sentidos": 0
    },
    {
        "ciclofaixa": 1,
        "corredor": 0,
        "endereco": "Rua João Filete de Oliveira x Rua Dona Cezarina",
        "endereco_alterado": "x",
        "equipamento": "FS589JOI",
        "estacionamento": 1,
        "latitude": -26.3554,
        "longitude": -48.83879,
        "n_faixa_carro_sentido": 1,
        "radar_2_sentidos": "x"
    },
    {
        "ciclofaixa": 0,
        "corredor": 0,
        "endereco": "Av. Paulo Schroeder x Rua Boehmerwald",
        "endereco_alterado": 0,
        "equipamento": "FS590JOI",
        "estacionamento": 1,
        "latitude": -23.6076,
        "longitude": -48.83177,
        "n_faixa_carro_sentido": 2,
        "radar_2_sentidos": 0
    },
    {
        "ciclofaixa": 1,
        "corredor": 0,
        "endereco": "Rua Rio Grande do Sul 500",
        "endereco_alterado": 0,
        "equipamento": "FS592JOI",
        "estacionamento": 1,
        "latitude": -26.31388,
        "longitude": -48.85139,
        "n_faixa_carro_sentido": 2,
        "radar_2_sentidos": 0
    },
    {
        "ciclofaixa": 0,
        "corredor": 0,
        "endereco": "Av. Aluisio Pires Condeixa. 2700",
        "endereco_alterado": 0,
        "equipamento": "FS593JOI",
        "estacionamento": 1,
        "latitude": -26.27918,
        "longitude": -48.84623,
        "n_faixa_carro_sentido": 2,
        "radar_2_sentidos": 0
    },
    {
        "ciclofaixa": 1,
        "corredor": 0,
        "endereco": "R. Monsenhor Gercino. 6396",
        "endereco_alterado": 0,
        "equipamento": "FS594JOI",
        "estacionamento": 0,
        "latitude": -2634229,
        "longitude": -4879607,
        "n_faixa_carro_sentido": 1,
        "radar_2_sentidos": 0
    },
    {
        "ciclofaixa": 1,
        "corredor": 0,
        "endereco": "Rua XV de Novembro x Rua Rudolfo Baumer",
        "endereco_alterado": 0,
        "equipamento": "FS595JOI",
        "estacionamento": 0,
        "latitude": -26.28749,
        "longitude": -48.90235,
        "n_faixa_carro_sentido": 2,
        "radar_2_sentidos": 0
    },
    {
        "ciclofaixa": 0,
        "corredor": 1,
        "endereco": "Av. José Vieira X Rua Itaiópolis",
        "endereco_alterado": 0,
        "equipamento": "FS596JOI",
        "estacionamento": 0,
        "latitude": -26.28739,
        "longitude": -48.84335,
        "n_faixa_carro_sentido": 2,
        "radar_2_sentidos": 0
    },
    {
        "ciclofaixa": 1,
        "corredor": 0,
        "endereco": "Rua Monsenhor Gercino. 6551",
        "endereco_alterado": 0,
        "equipamento": "FS597JOI",
        "estacionamento": 0,
        "latitude": -2634289,
        "longitude": -4879469,
        "n_faixa_carro_sentido": 1,
        "radar_2_sentidos": 0
    },
    {
        "ciclofaixa": 0,
        "corredor": 0,
        "endereco": "Av. Kurt Meinert. 1072",
        "endereco_alterado": 0,
        "equipamento": "FS598JOI",
        "estacionamento": 0,
        "latitude": -2634474,
        "longitude": -4878191,
        "n_faixa_carro_sentido": 1,
        "radar_2_sentidos": 0
    },
    {
        "ciclofaixa": 0,
        "corredor": 1,
        "endereco": "Rua Iririu 246",
        "endereco_alterado": 0,
        "equipamento": "FS599JOI",
        "estacionamento": 0,
        "latitude": -26.28206,
        "longitude": -48.83903,
        "n_faixa_carro_sentido": 2,
        "radar_2_sentidos": 0
    },
    {
        "ciclofaixa": 0,
        "corredor": 0,
        "endereco": "Av. Cel. Procópio Gomes X R. Inácio Bastos",
        "endereco_alterado": 0,
        "equipamento": "FS600JOI",
        "estacionamento": 1,
        "latitude": -26.31616,
        "longitude": -48.84038,
        "n_faixa_carro_sentido": 2,
        "radar_2_sentidos": "x"
    },
    {
        "ciclofaixa": 0,
        "corredor": 0,
        "endereco": "Rua Dona Elza Meinert. 692",
        "endereco_alterado": 0,
        "equipamento": "FS601JOI",
        "estacionamento": 0,
        "latitude": -26.27927,
        "longitude": -48.8746,
        "n_faixa_carro_sentido": 2,
        "radar_2_sentidos": 0
    },
    {
        "ciclofaixa": 1,
        "corredor": 0,
        "endereco": "Rua Leopoldo Beninca. 365",
        "endereco_alterado": 0,
        "equipamento": "FS602JOI",
        "estacionamento": 1,
        "latitude": -26.29228,
        "longitude": -48.90069,
        "n_faixa_carro_sentido": 2,
        "radar_2_sentidos": 0
    },
    {
        "ciclofaixa": 1,
        "corredor": 1,
        "endereco": "Rua São Paulo. 2622",
        "endereco_alterado": 0,
        "equipamento": "FS603JOI",
        "estacionamento": 0,
        "latitude": -26.33142,
        "longitude": -48.84188,
        "n_faixa_carro_sentido": 2,
        "radar_2_sentidos": 0
    },
    {
        "ciclofaixa": 1,
        "corredor": 0,
        "endereco": "Rua Timbó. 1276",
        "endereco_alterado": 0,
        "equipamento": "FS604JOI",
        "estacionamento": 1,
        "latitude": -26.29315,
        "longitude": -26.29315,
        "n_faixa_carro_sentido": 2,
        "radar_2_sentidos": 0
    },
    {
        "ciclofaixa": 1,
        "corredor": 0,
        "endereco": "Rua São Firmino. 555",
        "endereco_alterado": 0,
        "equipamento": "FS605JOI",
        "estacionamento": 1,
        "latitude": -26.29194,
        "longitude": -48.91173,
        "n_faixa_carro_sentido": 2,
        "radar_2_sentidos": 0
    },
    {
        "ciclofaixa": 1,
        "corredor": 1,
        "endereco": "Rua Visconde de Taunay. 900",
        "endereco_alterado": 0,
        "equipamento": "FS606JOI",
        "estacionamento": 0,
        "latitude": -26.3068,
        "longitude": -48.85483,
        "n_faixa_carro_sentido": 2,
        "radar_2_sentidos": 0
    },
    {
        "ciclofaixa": 0,
        "corredor": 1,
        "endereco": "Rua Santa Catarina. 517",
        "endereco_alterado": 0,
        "equipamento": "FS607JOI",
        "estacionamento": 0,
        "latitude": -26.32713,
        "longitude": -48.84559,
        "n_faixa_carro_sentido": 2,
        "radar_2_sentidos": 0
    },
    {
        "ciclofaixa": 0,
        "corredor": 0,
        "endereco": "Rua Boehmerwald. 2224",
        "endereco_alterado": 0,
        "equipamento": "FS608JOI",
        "estacionamento": 0,
        "latitude": -26.36188,
        "longitude": -48.81267,
        "n_faixa_carro_sentido": 1,
        "radar_2_sentidos": "x"
    },
    {
        "ciclofaixa": 0,
        "corredor": 0,
        "endereco": "Rua General Valgas Neves. 428",
        "endereco_alterado": 0,
        "equipamento": "FS609JOI",
        "estacionamento": 1,
        "latitude": -26.31089,
        "longitude": -48.85127,
        "n_faixa_carro_sentido": 2,
        "radar_2_sentidos": 0
    },
    {
        "ciclofaixa": 0,
        "corredor": 0,
        "endereco": "Rua Florianópolis x Rua Guanabara",
        "endereco_alterado": 0,
        "equipamento": "FS610JOI",
        "estacionamento": 0,
        "latitude": -26.32577,
        "longitude": -48.83619,
        "n_faixa_carro_sentido": 1,
        "radar_2_sentidos": 0
    },
    {
        "ciclofaixa": 1,
        "corredor": 0,
        "endereco": "Rua Guaíra. 1053",
        "endereco_alterado": 0,
        "equipamento": "FS614JOI",
        "estacionamento": 0,
        "latitude": -26.26435,
        "longitude": -48.81949,
        "n_faixa_carro_sentido": 2,
        "radar_2_sentidos": 0
    },
    {
        "ciclofaixa": 0,
        "corredor": 0,
        "endereco": "Av. Plácido Hugo de Oliveira Próx. Rua Santa Catarina",
        "endereco_alterado": 0,
        "equipamento": "FS615JOI",
        "estacionamento": 1,
        "latitude": -26.37868,
        "longitude": -48.84337,
        "n_faixa_carro_sentido": 2,
        "radar_2_sentidos": 0
    },
    {
        "ciclofaixa": 0,
        "corredor": 0,
        "endereco": "Av. Plácido Hugo de Oliveira Próx. Rua Santa Catarina",
        "endereco_alterado": 0,
        "equipamento": "FS616JOI",
        "estacionamento": 1,
        "latitude": -26.37648,
        "longitude": -48.84158,
        "n_faixa_carro_sentido": 2,
        "radar_2_sentidos": 0
    },
    {
        "ciclofaixa": 1,
        "corredor": 0,
        "endereco": "Av. Papa João XXlll x Rua Pasteur",
        "endereco_alterado": 0,
        "equipamento": "FS617JOI",
        "estacionamento": 0,
        "latitude": -26.28139,
        "longitude": -48.81788,
        "n_faixa_carro_sentido": 2,
        "radar_2_sentidos": 0
    },
    {
        "ciclofaixa": 1,
        "corredor": 0,
        "endereco": "Rua Albano Schmidt. 4952",
        "endereco_alterado": 0,
        "equipamento": "FS618JOI",
        "estacionamento": 0,
        "latitude": -26.27542,
        "longitude": -48.81144,
        "n_faixa_carro_sentido": 2,
        "radar_2_sentidos": 0
    },
    {
        "ciclofaixa": 1,
        "corredor": 0,
        "endereco": "Rua Guanabara. 2308",
        "endereco_alterado": 0,
        "equipamento": "FS619JOI",
        "estacionamento": 0,
        "latitude": -26.31929,
        "longitude": -48.81939,
        "n_faixa_carro_sentido": 1,
        "radar_2_sentidos": "x"
    },
    {
        "ciclofaixa": 1,
        "corredor": 0,
        "endereco": "Rua João da Costa Jr.. 1341",
        "endereco_alterado": 0,
        "equipamento": "FS620JOI",
        "estacionamento": 0,
        "latitude": -26.35175,
        "longitude": -48.81974,
        "n_faixa_carro_sentido": 1,
        "radar_2_sentidos": "x"
    },
    {
        "ciclofaixa": 0,
        "corredor": 0,
        "endereco": "Rua Expedicionário Holz. 149",
        "endereco_alterado": 0,
        "equipamento": "FS621JOI",
        "estacionamento": 0,
        "latitude": -26.30295,
        "longitude": -48.85354,
        "n_faixa_carro_sentido": 2,
        "radar_2_sentidos": 0
    },
    {
        "ciclofaixa": 0,
        "corredor": 0,
        "endereco": "Rua Expedicionário Holz. 149",
        "endereco_alterado": 0,
        "equipamento": "FS621JOI",
        "estacionamento": 0,
        "latitude": -26.30295,
        "longitude": -48.85354,
        "n_faixa_carro_sentido": 1,
        "radar_2_sentidos": 0
    },
    {
        "ciclofaixa": 1,
        "corredor": 1,
        "endereco": "Rua Santo Agostinho. 156",
        "endereco_alterado": 0,
        "equipamento": "FS622JOI",
        "estacionamento": 0,
        "latitude": -26.31953,
        "longitude": -48.82636,
        "n_faixa_carro_sentido": 2,
        "radar_2_sentidos": 0
    },
    {
        "ciclofaixa": 1,
        "corredor": 0,
        "endereco": "Rua Max Colin 1629",
        "endereco_alterado": 0,
        "equipamento": "FS623JOI",
        "estacionamento": 0,
        "latitude": -26.29413,
        "longitude": -48.85844,
        "n_faixa_carro_sentido": 2,
        "radar_2_sentidos": 0
    },
    {
        "ciclofaixa": 1,
        "corredor": 0,
        "endereco": "Rua Albano Schmidt. 2739",
        "endereco_alterado": 0,
        "equipamento": "FS624JOI",
        "estacionamento": 0,
        "latitude": -26.29332,
        "longitude": -48.81484,
        "n_faixa_carro_sentido": 2,
        "radar_2_sentidos": 0
    },
    {
        "ciclofaixa": 1,
        "corredor": 0,
        "endereco": "Rua XV de Novembro. 5001",
        "endereco_alterado": 0,
        "equipamento": "FS625JOI",
        "estacionamento": 0,
        "latitude": -26.28891,
        "longitude": -48.89504,
        "n_faixa_carro_sentido": 2,
        "radar_2_sentidos": 0
    },
    {
        "ciclofaixa": 1,
        "corredor": 0,
        "endereco": "Rua Pref. Helmuth Fallgatter. 1400",
        "endereco_alterado": 0,
        "equipamento": "FS626JOI",
        "estacionamento": 0,
        "latitude": -26.30091,
        "longitude": -48.82414,
        "n_faixa_carro_sentido": 2,
        "radar_2_sentidos": 0
    },
    {
        "ciclofaixa": 0,
        "corredor": 0,
        "endereco": "R. Nacar. 260",
        "endereco_alterado": 0,
        "equipamento": "FS627JOI",
        "estacionamento": 0,
        "latitude": -26.32193,
        "longitude": -48.83217,
        "n_faixa_carro_sentido": 2,
        "radar_2_sentidos": 0
    },
    {
        "ciclofaixa": 0,
        "corredor": 0,
        "endereco": "R. Teresópolis. 300",
        "endereco_alterado": 0,
        "equipamento": "FS628JOI",
        "estacionamento": 0,
        "latitude": -26.32847,
        "longitude": -48.82315,
        "n_faixa_carro_sentido": 1,
        "radar_2_sentidos": 0
    },
    {
        "ciclofaixa": 0,
        "corredor": 0,
        "endereco": "Rua Teresópolis. 460",
        "endereco_alterado": 0,
        "equipamento": "FS629JOI",
        "estacionamento": 0,
        "latitude": -26.32454,
        "longitude": -48.82229,
        "n_faixa_carro_sentido": 1,
        "radar_2_sentidos": 0
    },
    {
        "ciclofaixa": 0,
        "corredor": 0,
        "endereco": "Rua Anitápolis. 245",
        "endereco_alterado": 0,
        "equipamento": "FS630JOI",
        "estacionamento": 0,
        "latitude": -26.33834,
        "longitude": -48.82273,
        "n_faixa_carro_sentido": 1,
        "radar_2_sentidos": 0
    },
    {
        "ciclofaixa": 0,
        "corredor": 0,
        "endereco": "Av. Getúlio Vargas X Rua Padre Kolb",
        "endereco_alterado": 0,
        "equipamento": "FS631JOI",
        "estacionamento": 1,
        "latitude": -26.31459,
        "longitude": -48.84534,
        "n_faixa_carro_sentido": 3,
        "radar_2_sentidos": 0
    },
    {
        "ciclofaixa": 0,
        "corredor": 0,
        "endereco": "Rua Marquês de Olinda (R. Evaristo da Veiga) X Rua XV de Novembro",
        "endereco_alterado": 0,
        "equipamento": "FS632JOI",
        "estacionamento": 0,
        "latitude": -26.29649,
        "longitude": -48.8647,
        "n_faixa_carro_sentido": 2,
        "radar_2_sentidos": 0
    },
    {
        "ciclofaixa": 0,
        "corredor": 1,
        "endereco": "Rua Blumenau nº1580",
        "endereco_alterado": 0,
        "equipamento": "FS633JOI",
        "estacionamento": 0,
        "latitude": -26.28678,
        "longitude": -48.84984,
        "n_faixa_carro_sentido": 2,
        "radar_2_sentidos": 0
    },
    {
        "ciclofaixa": 1,
        "corredor": 0,
        "endereco": "Rua Pref. Helmuth Fallgatter. 791",
        "endereco_alterado": 0,
        "equipamento": "FS634JOI",
        "estacionamento": 0,
        "latitude": -26.30474,
        "longitude": -48.82821,
        "n_faixa_carro_sentido": 2,
        "radar_2_sentidos": 0
    },
    {
        "ciclofaixa": 1,
        "corredor": 0,
        "endereco": "Rua Pref. Helmuth Fallgatter. 2400",
        "endereco_alterado": 0,
        "equipamento": "FS635JOI",
        "estacionamento": 0,
        "latitude": -26.29437,
        "longitude": -48.81715,
        "n_faixa_carro_sentido": 2,
        "radar_2_sentidos": 0
    },
    {
        "ciclofaixa": 1,
        "corredor": 0,
        "endereco": "Rua Monsenhor Gercino . 6675",
        "endereco_alterado": 0,
        "equipamento": "FS636JOI",
        "estacionamento": 0,
        "latitude": -2634525,
        "longitude": -4879242,
        "n_faixa_carro_sentido": 1,
        "radar_2_sentidos": "x"
    },
    {
        "ciclofaixa": 1,
        "corredor": 0,
        "endereco": "Rua Waldemiro José Borges. 3528",
        "endereco_alterado": 0,
        "equipamento": "FS637JOI",
        "estacionamento": 0,
        "latitude": -26.37948,
        "longitude": -48.82497,
        "n_faixa_carro_sentido": 1,
        "radar_2_sentidos": "x"
    },
    {
        "ciclofaixa": 1,
        "corredor": 0,
        "endereco": "Rua XV de Novembro. 7800",
        "endereco_alterado": 0,
        "equipamento": "FS638JOI",
        "estacionamento": 0,
        "latitude": -26.28697,
        "longitude": -48.91079,
        "n_faixa_carro_sentido": 1,
        "radar_2_sentidos": 0
    },
    {
        "ciclofaixa": 1,
        "corredor": 0,
        "endereco": "Rua Albano Schmidt. 3200",
        "endereco_alterado": 0,
        "equipamento": "FS639JOI",
        "estacionamento": 0,
        "latitude": -26.29002,
        "longitude": -48.81209,
        "n_faixa_carro_sentido": 2,
        "radar_2_sentidos": 0
    },
    {
        "ciclofaixa": 0,
        "corredor": 0,
        "endereco": "Rua Fátima. 542",
        "endereco_alterado": 0,
        "equipamento": "FS640JOI",
        "estacionamento": 0,
        "latitude": -26.33509,
        "longitude": -48.8168,
        "n_faixa_carro_sentido": 1,
        "radar_2_sentidos": "x"
    },
    {
        "ciclofaixa": 0,
        "corredor": 0,
        "endereco": "Rua Pref. Helmuth Fallgatter. 3675",
        "endereco_alterado": 0,
        "equipamento": "FS641JOI",
        "estacionamento": 0,
        "latitude": -26.28533,
        "longitude": -48.81048,
        "n_faixa_carro_sentido": 2,
        "radar_2_sentidos": 0
    },
    {
        "ciclofaixa": 0,
        "corredor": 1,
        "endereco": "Rua São Paulo. 200",
        "endereco_alterado": 0,
        "equipamento": "FS642JOI",
        "estacionamento": 0,
        "latitude": -26.30914,
        "longitude": -48.84296,
        "n_faixa_carro_sentido": 2,
        "radar_2_sentidos": 0
    },
    {
        "ciclofaixa": 1,
        "corredor": 0,
        "endereco": "Rua Tenente Antônio João. 1937",
        "endereco_alterado": 0,
        "equipamento": "FS643JOI",
        "estacionamento": 0,
        "latitude": -26.25956,
        "longitude": -48.84651,
        "n_faixa_carro_sentido": 2,
        "radar_2_sentidos": 0
    },
    {
        "ciclofaixa": 1,
        "corredor": 0,
        "endereco": "Rua Benjamin Constant 650",
        "endereco_alterado": 0,
        "equipamento": "FS644JOI",
        "estacionamento": 0,
        "latitude": -26.28445,
        "longitude": -48.85526,
        "n_faixa_carro_sentido": 1,
        "radar_2_sentidos": 0
    },
    {
        "ciclofaixa": 1,
        "corredor": 0,
        "endereco": "Rua Dona Francisca. 4565",
        "endereco_alterado": 0,
        "equipamento": "FS645JOI",
        "estacionamento": 0,
        "latitude": -26.26871,
        "longitude": -48.85593,
        "n_faixa_carro_sentido": 1,
        "radar_2_sentidos": 0
    },
    {
        "ciclofaixa": 1,
        "corredor": 0,
        "endereco": "Rua Guanabara. 3675",
        "endereco_alterado": 0,
        "equipamento": "FS646JOI",
        "estacionamento": 0,
        "latitude": -26.32101,
        "longitude": -48.81357,
        "n_faixa_carro_sentido": 2,
        "radar_2_sentidos": 0
    },
    {
        "ciclofaixa": 0,
        "corredor": 0,
        "endereco": "Av. Marcos Wehmuth. 2979",
        "endereco_alterado": 0,
        "equipamento": "FS647JOI",
        "estacionamento": 1,
        "latitude": -26.27927,
        "longitude": -48.84741,
        "n_faixa_carro_sentido": 2,
        "radar_2_sentidos": 0
    },
    {
        "ciclofaixa": 0,
        "corredor": 1,
        "endereco": "Dr. João Colin x Benjamin Constant",
        "endereco_alterado": 0,
        "equipamento": "FS648JOI",
        "estacionamento": 0,
        "latitude": -26.28434,
        "longitude": -48.84914,
        "n_faixa_carro_sentido": 2,
        "radar_2_sentidos": 0
    },
    {
        "ciclofaixa": 0,
        "corredor": 0,
        "endereco": "Rua Monsenhor Gercino X Rua Jarivatuba",
        "endereco_alterado": 0,
        "equipamento": "FS649JOI",
        "estacionamento": 0,
        "latitude": -26.33829,
        "longitude": -48.80539,
        "n_faixa_carro_sentido": 1,
        "radar_2_sentidos": 0
    },
    {
        "ciclofaixa": 0,
        "corredor": 0,
        "endereco": "Rua Ottokar Doerffel X Rua Marquês de Olinda (R. Otto Parucker)",
        "endereco_alterado": 0,
        "equipamento": "FS650JOI",
        "estacionamento": 0,
        "latitude": -26.31468,
        "longitude": -48.86154,
        "n_faixa_carro_sentido": 1,
        "radar_2_sentidos": 0
    },
    {
        "ciclofaixa": 1,
        "corredor": 0,
        "endereco": "Rua Tenente Antônio João. 826",
        "endereco_alterado": 0,
        "equipamento": "FS651JOI",
        "estacionamento": 0,
        "latitude": -26.26892,
        "longitude": -48.84537,
        "n_faixa_carro_sentido": 2,
        "radar_2_sentidos": 0
    },
    {
        "ciclofaixa": 1,
        "corredor": 0,
        "endereco": "Rua Tuiutí. 3800",
        "endereco_alterado": 0,
        "equipamento": "FS652JOI",
        "estacionamento": 0,
        "latitude": -26.24187,
        "longitude": -48.81944,
        "n_faixa_carro_sentido": 1,
        "radar_2_sentidos": "x"
    },
    {
        "ciclofaixa": 0,
        "corredor": 0,
        "endereco": "Rua Marquês de Olinda. 2841",
        "endereco_alterado": 0,
        "equipamento": "FS653JOI",
        "estacionamento": 1,
        "latitude": -26.28914,
        "longitude": -48.85183,
        "n_faixa_carro_sentido": 1,
        "radar_2_sentidos": "x"
    },
    {
        "ciclofaixa": 0,
        "corredor": 0,
        "endereco": "Av. Paulo Schroeder. próx. 2100",
        "endereco_alterado": 0,
        "equipamento": "FS654JOI",
        "estacionamento": 1,
        "latitude": -26.35045,
        "longitude": -48.83134,
        "n_faixa_carro_sentido": 2,
        "radar_2_sentidos": 0
    },
    {
        "ciclofaixa": 0,
        "corredor": 1,
        "endereco": "Dr. João Colin x Presidente Prudente Moraes",
        "endereco_alterado": 0,
        "equipamento": "FS655JOI",
        "estacionamento": 0,
        "latitude": -26.2745,
        "longitude": -48.85019,
        "n_faixa_carro_sentido": 2,
        "radar_2_sentidos": 0
    },
    {
        "ciclofaixa": 1,
        "corredor": 0,
        "endereco": "Rua Adolfo da Veiga. 400",
        "endereco_alterado": 0,
        "equipamento": "FS661JOI",
        "estacionamento": 0,
        "latitude": -26.36438,
        "longitude": -48.82948,
        "n_faixa_carro_sentido": 1,
        "radar_2_sentidos": 0
    }
]